results/floripasat2_contacts_60_days.txt


Target: FloripaSat_2

Observer: INPE_RN
Start Time (UTC)            Stop Time (UTC)               Duration (s)         
01 Jan 2022 12:46:36.006    01 Jan 2022 12:51:46.261      310.25456213    
02 Jan 2022 00:40:58.542    02 Jan 2022 00:44:59.171      240.62860329    
02 Jan 2022 12:40:38.073    02 Jan 2022 12:45:07.917      269.84419429    
03 Jan 2022 00:35:22.885    03 Jan 2022 00:37:57.469      154.58436917    
03 Jan 2022 02:09:58.216    03 Jan 2022 02:11:57.229      119.01356438    
03 Jan 2022 12:34:49.110    03 Jan 2022 12:38:19.668      210.55819897    
04 Jan 2022 02:02:47.963    04 Jan 2022 02:06:30.847      222.88397042    
04 Jan 2022 12:29:23.534    04 Jan 2022 12:31:07.128      103.59368065    
04 Jan 2022 14:04:16.656    04 Jan 2022 14:04:50.967      34.311610751    
05 Jan 2022 01:55:58.933    05 Jan 2022 02:00:41.813      282.88072776    
05 Jan 2022 13:56:37.908    05 Jan 2022 13:59:48.477      190.56932159    
06 Jan 2022 01:49:18.441    06 Jan 2022 01:54:42.835      324.39396128    
06 Jan 2022 13:49:43.384    06 Jan 2022 13:54:00.610      257.22607349    
07 Jan 2022 01:42:43.202    07 Jan 2022 01:48:37.221      354.01921738    
07 Jan 2022 13:42:59.568    07 Jan 2022 13:48:00.907      301.33897009    
08 Jan 2022 01:36:11.805    08 Jan 2022 01:42:26.407      374.60179597    
08 Jan 2022 13:36:21.865    08 Jan 2022 13:41:53.982      332.11771050    
09 Jan 2022 01:29:43.540    09 Jan 2022 01:36:11.123      387.58288755    
09 Jan 2022 13:29:48.500    09 Jan 2022 13:35:41.637      353.13741738    
10 Jan 2022 01:23:18.050    10 Jan 2022 01:29:51.748      393.69730979    
10 Jan 2022 13:23:18.618    10 Jan 2022 13:29:24.748      366.12966297    
11 Jan 2022 01:16:55.204    11 Jan 2022 01:23:28.435      393.23162382    
11 Jan 2022 13:16:51.798    11 Jan 2022 13:23:03.760      371.96191640    
12 Jan 2022 01:10:35.048    12 Jan 2022 01:17:01.159      386.11075556    
12 Jan 2022 13:10:27.880    12 Jan 2022 13:16:38.857      370.97691118    
13 Jan 2022 01:04:17.821    13 Jan 2022 01:10:29.702      371.88141870    
13 Jan 2022 13:04:06.911    13 Jan 2022 13:10:10.015      363.10337180    
14 Jan 2022 00:58:04.013    14 Jan 2022 01:03:53.595      349.58119736    
14 Jan 2022 12:57:49.159    14 Jan 2022 13:03:36.994      347.83571045    
15 Jan 2022 00:51:54.548    15 Jan 2022 00:57:11.934      317.38576151    
15 Jan 2022 12:51:35.188    15 Jan 2022 12:56:59.255      324.06641075    
16 Jan 2022 00:45:51.273    16 Jan 2022 00:50:22.896      271.62323092    
16 Jan 2022 12:45:26.105    16 Jan 2022 12:50:15.717      289.61208647    
17 Jan 2022 00:39:58.817    17 Jan 2022 00:43:21.870      203.05303072    
17 Jan 2022 12:39:24.279    17 Jan 2022 12:43:24.041      239.76153616    
18 Jan 2022 00:34:45.838    18 Jan 2022 00:35:40.224      54.385993292    
18 Jan 2022 02:07:56.126    18 Jan 2022 02:11:04.903      188.77666384    
18 Jan 2022 12:33:36.730    18 Jan 2022 12:36:17.236      160.50588578    
19 Jan 2022 02:00:52.627    19 Jan 2022 02:05:14.362      261.73529044    
19 Jan 2022 14:01:29.457    19 Jan 2022 14:04:03.809      154.35147369    
20 Jan 2022 01:54:00.871    20 Jan 2022 01:59:10.658      309.78701916    
20 Jan 2022 13:54:18.301    20 Jan 2022 13:58:16.541      238.23957826    
21 Jan 2022 01:47:15.537    21 Jan 2022 01:52:59.142      343.60487756    
21 Jan 2022 13:47:22.545    21 Jan 2022 13:52:12.790      290.24503698    
22 Jan 2022 01:40:34.639    22 Jan 2022 01:46:41.819      367.17986095    
22 Jan 2022 13:40:34.330    22 Jan 2022 13:46:00.436      326.10672482    
23 Jan 2022 01:33:57.233    23 Jan 2022 01:40:19.662      382.42875355    
23 Jan 2022 13:33:51.138    23 Jan 2022 13:39:42.023      350.88459409    
24 Jan 2022 01:27:22.841    24 Jan 2022 01:33:53.170      390.32870756    
24 Jan 2022 13:27:11.832    24 Jan 2022 13:33:18.711      366.87902114    
25 Jan 2022 01:20:51.261    25 Jan 2022 01:27:22.568      391.30755616    
25 Jan 2022 13:20:35.849    25 Jan 2022 13:26:51.088      375.23940692    
26 Jan 2022 01:14:22.495    26 Jan 2022 01:20:47.877      385.38187573    
26 Jan 2022 13:14:02.943    26 Jan 2022 13:20:19.421      376.47757631    
27 Jan 2022 01:07:56.748    27 Jan 2022 01:14:08.913      372.16489508    
27 Jan 2022 13:07:33.103    27 Jan 2022 13:13:43.749      370.64626019    
28 Jan 2022 01:01:34.484    28 Jan 2022 01:07:25.235      350.75110432    
28 Jan 2022 13:01:06.533    28 Jan 2022 13:07:03.891      357.35799239    
29 Jan 2022 00:55:16.592    29 Jan 2022 01:00:35.973      319.38106916    
29 Jan 2022 12:54:43.722    29 Jan 2022 13:00:19.383      335.66053603    
30 Jan 2022 00:49:04.862    30 Jan 2022 00:53:39.361      274.49934877    
30 Jan 2022 12:48:25.634    30 Jan 2022 12:53:29.290      303.65580776    
31 Jan 2022 00:43:03.730    31 Jan 2022 00:46:30.985      207.25550900    
31 Jan 2022 12:42:14.264    31 Jan 2022 12:46:31.642      257.37833767    
01 Feb 2022 00:37:37.782    01 Feb 2022 00:38:46.279      68.497573736    
01 Feb 2022 02:11:07.629    01 Feb 2022 02:13:50.494      162.86541363    
01 Feb 2022 12:36:14.923    01 Feb 2022 12:39:21.160      186.23710403    
02 Feb 2022 02:03:51.225    02 Feb 2022 02:07:56.889      245.66421832    
02 Feb 2022 14:04:10.494    02 Feb 2022 14:06:48.127      157.63367966    
03 Feb 2022 01:56:49.541    03 Feb 2022 02:01:47.138      297.59683904    
03 Feb 2022 13:56:50.602    03 Feb 2022 14:00:54.206      243.60472279    
04 Feb 2022 01:49:55.175    04 Feb 2022 01:55:28.667      333.49219887    
04 Feb 2022 13:49:46.539    04 Feb 2022 13:54:43.396      296.85655123    
05 Feb 2022 01:43:05.686    05 Feb 2022 01:49:03.944      358.25760876    
05 Feb 2022 13:42:50.234    05 Feb 2022 13:48:23.790      333.55654391    
06 Feb 2022 01:36:19.962    06 Feb 2022 01:42:34.103      374.14072392    
06 Feb 2022 13:35:59.102    06 Feb 2022 13:41:57.995      358.89224246    
07 Feb 2022 01:29:37.456    07 Feb 2022 01:35:59.717      382.26033733    
07 Feb 2022 13:29:11.978    07 Feb 2022 13:35:27.197      375.21896126    
08 Feb 2022 01:22:57.938    08 Feb 2022 01:29:21.038      383.09976807    
08 Feb 2022 13:22:28.286    08 Feb 2022 13:28:51.997      383.71115110    
09 Feb 2022 01:16:21.409    09 Feb 2022 01:22:38.084      376.67537058    
09 Feb 2022 13:15:47.775    09 Feb 2022 13:22:12.664      384.88864704    
10 Feb 2022 01:09:48.102    10 Feb 2022 01:15:50.647      362.54455744    
10 Feb 2022 13:09:10.435    10 Feb 2022 13:15:29.233      378.79882422    
11 Feb 2022 01:03:18.551    11 Feb 2022 01:08:58.212      339.66091352    
11 Feb 2022 13:02:36.479    11 Feb 2022 13:08:41.513      365.03416750    
12 Feb 2022 00:56:53.806    12 Feb 2022 01:01:59.748      305.94196294    
12 Feb 2022 12:56:06.418    12 Feb 2022 13:01:49.018      342.60034198    
13 Feb 2022 00:50:36.087    13 Feb 2022 00:54:53.060      256.97364325    
13 Feb 2022 12:49:41.255    13 Feb 2022 12:54:50.768      309.51391663    
14 Feb 2022 00:44:31.561    14 Feb 2022 00:47:32.000      180.43908837    
14 Feb 2022 12:43:23.085    14 Feb 2022 12:47:44.696      261.61076197    
15 Feb 2022 02:12:15.512    15 Feb 2022 02:14:55.259      159.74634265    
15 Feb 2022 12:37:17.558    15 Feb 2022 12:40:25.177      187.61888120    
16 Feb 2022 02:04:50.950    16 Feb 2022 02:08:53.690      242.74005865    
16 Feb 2022 14:04:48.253    16 Feb 2022 14:07:59.762      191.50891680    
17 Feb 2022 01:57:41.422    17 Feb 2022 02:02:35.640      294.21822850    
17 Feb 2022 13:57:26.292    17 Feb 2022 14:01:52.559      266.26697289    
18 Feb 2022 01:50:39.335    18 Feb 2022 01:56:08.727      329.39220350    
18 Feb 2022 13:50:16.875    18 Feb 2022 13:55:31.729      314.85394123    
19 Feb 2022 01:43:42.222    19 Feb 2022 01:49:35.444      353.22168914    
19 Feb 2022 13:43:14.395    19 Feb 2022 13:49:02.895      348.50036310    
20 Feb 2022 01:36:48.975    20 Feb 2022 01:42:56.921      367.94597843    
20 Feb 2022 13:36:16.784    20 Feb 2022 13:42:28.147      371.36263191    
21 Feb 2022 01:29:59.064    21 Feb 2022 01:36:13.709      374.64442109    
21 Feb 2022 13:29:23.068    21 Feb 2022 13:35:48.479      385.41114408    
22 Feb 2022 01:23:12.295    22 Feb 2022 01:29:26.024      373.72885386    
22 Feb 2022 13:22:32.768    22 Feb 2022 13:29:04.387      391.61874721    
23 Feb 2022 01:16:28.730    23 Feb 2022 01:22:33.827      365.09615734    
23 Feb 2022 13:15:45.708    23 Feb 2022 13:22:16.069      390.36079914    
24 Feb 2022 01:09:48.704    24 Feb 2022 01:15:36.801      348.09712807    
24 Feb 2022 13:09:01.946    24 Feb 2022 13:15:23.488      381.54227991    
25 Feb 2022 01:03:12.944    25 Feb 2022 01:08:34.238      321.29403058    
25 Feb 2022 13:02:21.788    25 Feb 2022 13:08:26.358      364.56959172    
26 Feb 2022 00:56:42.935    26 Feb 2022 01:01:24.674      281.73831920    
26 Feb 2022 12:55:45.897    26 Feb 2022 13:01:24.040      338.14327440    
27 Feb 2022 00:50:22.164    27 Feb 2022 00:54:04.641      222.47730300    
27 Feb 2022 12:49:15.583    27 Feb 2022 12:54:15.245      299.66140488    
28 Feb 2022 00:44:24.408    28 Feb 2022 00:46:20.384      115.97594476    
28 Feb 2022 12:42:53.773    28 Feb 2022 12:46:57.072      243.29960130    
01 Mar 2022 02:11:13.289    01 Mar 2022 02:14:22.474      189.18518324    
01 Mar 2022 12:36:50.121    01 Mar 2022 12:39:19.893      149.77278512    
01 Mar 2022 14:11:15.907    01 Mar 2022 14:13:25.217      129.31022008    
02 Mar 2022 02:03:46.652    02 Mar 2022 02:08:06.401      259.74875456    


Number of events : 125


Observer: UFSC_PP5UF
Start Time (UTC)            Stop Time (UTC)               Duration (s)         
01 Jan 2022 14:27:24.996    01 Jan 2022 14:32:19.160      294.16424161    
02 Jan 2022 02:09:15.245    02 Jan 2022 02:15:28.564      373.31832092    
02 Jan 2022 14:20:49.569    02 Jan 2022 14:26:14.109      324.53937420    
03 Jan 2022 02:03:03.716    03 Jan 2022 02:09:00.612      356.89667267    
03 Jan 2022 14:14:18.071    03 Jan 2022 14:20:04.485      346.41427567    
04 Jan 2022 01:56:54.887    04 Jan 2022 02:02:28.281      333.39445309    
04 Jan 2022 14:07:49.691    04 Jan 2022 14:13:51.110      361.41958146    
05 Jan 2022 01:50:49.676    05 Jan 2022 01:55:50.657      300.98140344    
05 Jan 2022 14:01:23.982    05 Jan 2022 14:07:34.443      370.46111516    
06 Jan 2022 01:44:49.876    06 Jan 2022 01:49:05.948      256.07178326    
06 Jan 2022 03:19:51.765    06 Jan 2022 03:22:44.858      173.09304499    
06 Jan 2022 13:55:00.706    06 Jan 2022 14:01:14.736      374.03025285    
07 Jan 2022 01:38:59.988    07 Jan 2022 01:42:09.656      189.66787462    
07 Jan 2022 03:12:57.766    07 Jan 2022 03:17:01.041      243.27464795    
07 Jan 2022 13:48:39.768    07 Jan 2022 13:54:52.101      372.33311076    
08 Jan 2022 01:33:50.556    08 Jan 2022 01:34:31.237      40.681395214    
08 Jan 2022 03:06:14.109    08 Jan 2022 03:11:05.077      290.96806539    
08 Jan 2022 13:42:21.192    08 Jan 2022 13:48:26.528      365.33623380    
09 Jan 2022 02:59:35.825    09 Jan 2022 03:05:01.948      326.12295103    
09 Jan 2022 13:36:05.129    09 Jan 2022 13:41:57.885      352.75640205    
10 Jan 2022 02:53:01.072    10 Jan 2022 02:58:53.515      352.44359414    
10 Jan 2022 13:29:51.892    10 Jan 2022 13:35:25.880      333.98801191    
11 Jan 2022 02:46:28.949    11 Jan 2022 02:52:40.692      371.74267882    
11 Jan 2022 13:23:42.048    11 Jan 2022 13:28:49.967      307.91918705    
12 Jan 2022 02:39:58.972    12 Jan 2022 02:46:23.978      385.00633525    
12 Jan 2022 13:17:36.646    12 Jan 2022 13:22:09.119      272.47322506    
13 Jan 2022 02:33:30.876    13 Jan 2022 02:40:03.647      392.77088967    
13 Jan 2022 13:11:37.909    13 Jan 2022 13:15:21.139      223.23012468    
13 Jan 2022 14:46:41.923    13 Jan 2022 14:49:07.552      145.62892180    
14 Jan 2022 02:27:04.547    14 Jan 2022 02:33:39.826      395.27885956    
14 Jan 2022 13:05:52.491    14 Jan 2022 13:08:19.398      146.90759182    
14 Jan 2022 14:39:33.186    14 Jan 2022 14:43:20.583      227.39697023    
15 Jan 2022 02:20:39.984    15 Jan 2022 02:27:12.526      392.54131531    
15 Jan 2022 14:32:39.341    15 Jan 2022 14:37:18.129      278.78800799    
16 Jan 2022 02:14:17.298    16 Jan 2022 02:20:41.644      384.34608876    
16 Jan 2022 14:25:52.710    16 Jan 2022 14:31:07.879      315.16913044    
17 Jan 2022 02:07:56.729    17 Jan 2022 02:14:06.947      370.21723415    
17 Jan 2022 14:19:10.826    17 Jan 2022 14:24:52.306      341.48039294    
18 Jan 2022 02:01:38.707    18 Jan 2022 02:07:28.011      349.30361701    
18 Jan 2022 14:12:32.544    18 Jan 2022 14:18:32.568      360.02443306    
19 Jan 2022 01:55:23.977    19 Jan 2022 02:00:44.097      320.12086316    
19 Jan 2022 14:05:57.252    19 Jan 2022 14:12:09.289      372.03691097    
20 Jan 2022 01:49:13.924    20 Jan 2022 01:53:53.822      279.89802102    
20 Jan 2022 03:24:41.372    20 Jan 2022 03:27:02.562      141.19050071    
20 Jan 2022 13:59:24.616    20 Jan 2022 14:05:42.816      378.20028499    
21 Jan 2022 01:43:11.638    21 Jan 2022 01:46:54.097      222.45891709    
21 Jan 2022 03:17:32.421    21 Jan 2022 03:21:18.102      225.68094246    
21 Jan 2022 13:52:54.476    21 Jan 2022 13:59:13.325      378.84887299    
22 Jan 2022 01:37:28.215    22 Jan 2022 01:39:33.830      125.61518883    
22 Jan 2022 03:10:37.997    22 Jan 2022 03:15:17.279      279.28155729    
22 Jan 2022 13:46:26.807    22 Jan 2022 13:52:40.857      374.05067997    
23 Jan 2022 03:03:50.129    23 Jan 2022 03:09:08.083      317.95358306    
23 Jan 2022 13:40:01.709    23 Jan 2022 13:46:05.330      363.62108235    
24 Jan 2022 02:57:06.340    24 Jan 2022 03:02:53.009      346.66873547    
24 Jan 2022 13:33:39.434    24 Jan 2022 13:39:26.511      347.07609157    
25 Jan 2022 02:50:25.498    25 Jan 2022 02:56:33.204      367.70599501    
25 Jan 2022 13:27:20.454    25 Jan 2022 13:32:43.949      323.49494873    
26 Jan 2022 02:43:47.008    26 Jan 2022 02:50:09.279      382.27134424    
26 Jan 2022 13:21:05.627    26 Jan 2022 13:25:56.810      291.18247940    
27 Jan 2022 02:37:10.547    27 Jan 2022 02:43:41.567      391.02054461    
27 Jan 2022 13:14:56.668    27 Jan 2022 13:19:03.402      246.73391398    
27 Jan 2022 14:50:17.177    27 Jan 2022 14:52:33.665      136.48820934    
28 Jan 2022 02:30:35.965    28 Jan 2022 02:37:10.232      394.26662059    
28 Jan 2022 13:08:57.947    28 Jan 2022 13:11:59.379      181.43183375    
28 Jan 2022 14:42:56.665    28 Jan 2022 14:46:42.740      226.07501942    
29 Jan 2022 02:24:03.241    29 Jan 2022 02:30:35.305      392.06365779    
29 Jan 2022 13:03:42.105    29 Jan 2022 13:04:12.128      30.022570887    
29 Jan 2022 14:35:53.304    29 Jan 2022 14:40:34.128      280.82437576    
30 Jan 2022 02:17:32.473    30 Jan 2022 02:23:56.697      384.22456646    
30 Jan 2022 14:28:57.798    30 Jan 2022 14:34:17.131      319.33352837    
31 Jan 2022 02:11:03.896    31 Jan 2022 02:17:14.180      370.28413714    
31 Jan 2022 14:22:07.371    31 Jan 2022 14:27:54.533      347.16146125    
01 Feb 2022 02:04:37.941    01 Feb 2022 02:10:27.327      349.38659314    
01 Feb 2022 14:15:20.763    01 Feb 2022 14:21:27.601      366.83778721    
02 Feb 2022 01:58:15.367    02 Feb 2022 02:03:35.386      320.01933736    
02 Feb 2022 14:08:37.307    02 Feb 2022 14:14:57.014      379.70655165    
03 Feb 2022 01:51:57.600    03 Feb 2022 01:56:36.931      279.33085451    
03 Feb 2022 03:27:35.213    03 Feb 2022 03:29:33.885      118.67164497    
03 Feb 2022 14:01:56.638    03 Feb 2022 14:08:23.148      386.51008545    
04 Feb 2022 01:45:47.860    04 Feb 2022 01:49:28.746      220.88572418    
04 Feb 2022 03:20:13.177    04 Feb 2022 03:23:46.758      213.58038322    
04 Feb 2022 13:55:18.575    04 Feb 2022 14:01:46.194      387.61887577    
05 Feb 2022 01:39:58.128    05 Feb 2022 01:41:58.847      120.71967688    
05 Feb 2022 03:13:09.300    05 Feb 2022 03:17:39.602      270.30239344    
05 Feb 2022 13:48:43.082    05 Feb 2022 13:55:06.206      383.12412514    
06 Feb 2022 03:06:12.775    06 Feb 2022 03:11:23.243      310.46821863    
06 Feb 2022 13:42:10.250    06 Feb 2022 13:48:23.107      372.85697133    
07 Feb 2022 02:59:20.678    07 Feb 2022 03:05:00.622      339.94444271    
07 Feb 2022 13:35:40.324    07 Feb 2022 13:41:36.669      356.34547054    
08 Feb 2022 02:52:31.731    08 Feb 2022 02:58:33.033      361.30176344    
08 Feb 2022 13:29:13.766    08 Feb 2022 13:34:46.448      332.68150968    
09 Feb 2022 02:45:45.278    09 Feb 2022 02:52:01.146      375.86766713    
09 Feb 2022 13:22:51.423    09 Feb 2022 13:27:51.616      300.19299587    
10 Feb 2022 02:39:00.972    10 Feb 2022 02:45:25.322      384.35014790    
10 Feb 2022 13:16:34.973    10 Feb 2022 13:20:50.519      255.54545025    
10 Feb 2022 14:51:46.413    10 Feb 2022 14:54:27.870      161.45716337    
11 Feb 2022 02:32:18.652    11 Feb 2022 02:38:45.729      387.07661012    
11 Feb 2022 13:10:28.611    11 Feb 2022 13:13:38.983      190.37211416    
11 Feb 2022 14:44:22.331    11 Feb 2022 14:48:25.156      242.82538590    
12 Feb 2022 02:25:38.306    12 Feb 2022 02:32:02.393      384.08681732    
12 Feb 2022 13:04:57.623    12 Feb 2022 13:05:51.746      54.122797865    
12 Feb 2022 14:37:12.696    12 Feb 2022 14:42:07.470      294.77388676    
13 Feb 2022 02:19:00.051    13 Feb 2022 02:25:15.200      375.14834142    
13 Feb 2022 14:30:10.372    13 Feb 2022 14:35:41.951      331.57894827    
14 Feb 2022 02:12:24.170    14 Feb 2022 02:18:23.875      359.70535695    
14 Feb 2022 14:23:12.952    14 Feb 2022 14:29:11.010      358.05781446    
15 Feb 2022 02:05:51.178    15 Feb 2022 02:11:27.907      336.72881472    
15 Feb 2022 14:16:19.299    15 Feb 2022 14:22:35.790      376.49156927    
16 Feb 2022 01:59:22.012    16 Feb 2022 02:04:26.362      304.34953356    
16 Feb 2022 14:09:28.800    16 Feb 2022 14:15:56.909      388.10861644    
17 Feb 2022 01:52:58.533    17 Feb 2022 01:57:17.377      258.84328145    
17 Feb 2022 03:28:25.962    17 Feb 2022 03:30:25.643      119.68189428    
17 Feb 2022 14:02:41.126    17 Feb 2022 14:09:14.706      393.58084523    
18 Feb 2022 01:46:45.490    18 Feb 2022 01:49:56.202      190.71217405    
18 Feb 2022 03:20:56.609    18 Feb 2022 03:24:29.645      213.03616595    
18 Feb 2022 13:55:56.122    18 Feb 2022 14:02:29.345      393.22234002    
19 Feb 2022 01:41:20.624    19 Feb 2022 01:41:45.094      24.469581933    
19 Feb 2022 03:13:45.109    19 Feb 2022 03:18:13.876      268.76710077    
19 Feb 2022 13:49:13.780    19 Feb 2022 13:55:40.846      387.06564973    
20 Feb 2022 03:06:40.921    20 Feb 2022 03:11:48.893      307.97165986    
20 Feb 2022 13:42:34.227    20 Feb 2022 13:48:49.094      374.86655734    
21 Feb 2022 02:59:41.167    21 Feb 2022 03:05:17.591      336.42424580    
21 Feb 2022 13:35:57.764    21 Feb 2022 13:41:53.804      356.03959656    
22 Feb 2022 02:52:44.590    22 Feb 2022 02:58:41.240      356.64999420    
22 Feb 2022 13:29:24.950    22 Feb 2022 13:34:54.431      329.48040302    
23 Feb 2022 02:45:50.554    23 Feb 2022 02:52:00.491      369.93711692    
23 Feb 2022 13:22:56.829    23 Feb 2022 13:27:49.950      293.12038631    
23 Feb 2022 14:59:23.925    23 Feb 2022 15:00:16.558      52.632965811    
24 Feb 2022 02:38:58.733    24 Feb 2022 02:45:15.681      376.94825779    
24 Feb 2022 13:16:35.583    24 Feb 2022 13:20:38.198      242.61553867    
24 Feb 2022 14:51:19.706    24 Feb 2022 14:54:38.810      199.10344536    
25 Feb 2022 02:32:08.996    25 Feb 2022 02:38:26.947      377.95058495    
25 Feb 2022 13:10:27.448    25 Feb 2022 13:13:12.960      165.51143347    
25 Feb 2022 14:43:54.548    25 Feb 2022 14:48:21.438      266.88935749    
26 Feb 2022 02:25:21.372    26 Feb 2022 02:31:34.269      372.89708188    
26 Feb 2022 14:36:40.203    26 Feb 2022 14:41:52.689      312.48648934    
27 Feb 2022 02:18:36.046    27 Feb 2022 02:24:37.468      361.42145670    
27 Feb 2022 14:29:32.136    27 Feb 2022 14:35:17.096      344.96003548    
28 Feb 2022 02:11:53.410    28 Feb 2022 02:17:36.154      342.74469847    
28 Feb 2022 14:22:28.543    28 Feb 2022 14:28:36.468      367.92482114    
01 Mar 2022 02:05:14.184    01 Mar 2022 02:10:29.609      315.42502921    
01 Mar 2022 14:15:28.516    01 Mar 2022 14:21:51.714      383.19789574    
02 Mar 2022 01:58:39.749    02 Mar 2022 02:03:16.452      276.70284435    


Number of events : 143


